{
  "generated_at": "2026-07-21T14:07:24.122562+00:00",
  "source_workbook": "/Users/ruanxingran/git_repos/CAKE-DRI.github.io/DRI explore.xlsx",
  "connections": [
    {
      "id": "connection-1",
      "project_name": "AIRR Dawn",
      "project_city": "Cambridge",
      "activity_name": "UKAEA and Alan Turing Institute Early Access Workshop, 2024",
      "activity_location": "Cambridge",
      "project_coordinates": {
        "city": "Cambridge",
        "lat": 52.1975846499999,
        "lon": 0.139153737368743
      },
      "activity_coordinates": {
        "city": "Cambridge",
        "lat": 52.1975846499999,
        "lon": 0.139153737368743
      },
      "is_mappable": true
    },
    {
      "id": "connection-2",
      "project_name": "AIRR Dawn",
      "project_city": "Cambridge",
      "activity_name": "AI@Cam Early Access Hands-on Training Session, 2024",
      "activity_location": "Cambridge",
      "project_coordinates": {
        "city": "Cambridge",
        "lat": 52.1975846499999,
        "lon": 0.139153737368743
      },
      "activity_coordinates": {
        "city": "Cambridge",
        "lat": 52.1975846499999,
        "lon": 0.139153737368743
      },
      "is_mappable": true
    },
    {
      "id": "connection-3",
      "project_name": "AIRR Dawn",
      "project_city": "Cambridge",
      "activity_name": "ISC High Performance, 2024",
      "activity_location": "Hamburg",
      "project_coordinates": {
        "city": "Cambridge",
        "lat": 52.1975846499999,
        "lon": 0.139153737368743
      },
      "activity_coordinates": {
        "city": "Hamburg",
        "lat": 53.551086,
        "lon": 9.993682
      },
      "is_mappable": true
    },
    {
      "id": "connection-4",
      "project_name": "AIRR Dawn",
      "project_city": "Cambridge",
      "activity_name": "Dell Technologies World, 2024",
      "activity_location": "Las Vegas",
      "project_coordinates": {
        "city": "Cambridge",
        "lat": 52.1975846499999,
        "lon": 0.139153737368743
      },
      "activity_coordinates": {
        "city": "Las Vegas",
        "lat": 36.1716,
        "lon": -115.1391
      },
      "is_mappable": true
    },
    {
      "id": "connection-5",
      "project_name": "AIRR Dawn",
      "project_city": "Cambridge",
      "activity_name": "RSECon, 2024",
      "activity_location": "Newcastle",
      "project_coordinates": {
        "city": "Cambridge",
        "lat": 52.1975846499999,
        "lon": 0.139153737368743
      },
      "activity_coordinates": {
        "city": "Newcastle",
        "lat": 54.9783,
        "lon": -1.6178
      },
      "is_mappable": true
    },
    {
      "id": "connection-6",
      "project_name": "AIRR Dawn",
      "project_city": "Cambridge",
      "activity_name": "Dawn Pioneer Projects: Show and Tell Day, 2024",
      "activity_location": "Cambridge",
      "project_coordinates": {
        "city": "Cambridge",
        "lat": 52.1975846499999,
        "lon": 0.139153737368743
      },
      "activity_coordinates": {
        "city": "Cambridge",
        "lat": 52.1975846499999,
        "lon": 0.139153737368743
      },
      "is_mappable": true
    },
    {
      "id": "connection-7",
      "project_name": "AIRR Dawn",
      "project_city": "Cambridge",
      "activity_name": "HPC Advisory Council Conference, 2024",
      "activity_location": "Leicester",
      "project_coordinates": {
        "city": "Cambridge",
        "lat": 52.1975846499999,
        "lon": 0.139153737368743
      },
      "activity_coordinates": {
        "city": "Leicester",
        "lat": 52.6369,
        "lon": -1.1398
      },
      "is_mappable": true
    },
    {
      "id": "connection-8",
      "project_name": "AIRR Dawn",
      "project_city": "Cambridge",
      "activity_name": "SC, 2024",
      "activity_location": "Atlanta",
      "project_coordinates": {
        "city": "Cambridge",
        "lat": 52.1975846499999,
        "lon": 0.139153737368743
      },
      "activity_coordinates": {
        "city": "Atlanta",
        "lat": 33.749,
        "lon": -84.388
      },
      "is_mappable": true
    },
    {
      "id": "connection-9",
      "project_name": "AIRR Dawn",
      "project_city": "Cambridge",
      "activity_name": "Minister for AI and Digital Government Visit to Dawn, 2025",
      "activity_location": "Cambridge",
      "project_coordinates": {
        "city": "Cambridge",
        "lat": 52.1975846499999,
        "lon": 0.139153737368743
      },
      "activity_coordinates": {
        "city": "Cambridge",
        "lat": 52.1975846499999,
        "lon": 0.139153737368743
      },
      "is_mappable": true
    },
    {
      "id": "connection-10",
      "project_name": "AIRR Dawn",
      "project_city": "Cambridge",
      "activity_name": "Senior Government Minister Pat McFadden Visit to Dawn, 2025",
      "activity_location": "Cambridge",
      "project_coordinates": {
        "city": "Cambridge",
        "lat": 52.1975846499999,
        "lon": 0.139153737368743
      },
      "activity_coordinates": {
        "city": "Cambridge",
        "lat": 52.1975846499999,
        "lon": 0.139153737368743
      },
      "is_mappable": true
    },
    {
      "id": "connection-11",
      "project_name": "AIRR Dawn",
      "project_city": "Cambridge",
      "activity_name": "Cambridge Festival, 2025",
      "activity_location": "Cambridge",
      "project_coordinates": {
        "city": "Cambridge",
        "lat": 52.1975846499999,
        "lon": 0.139153737368743
      },
      "activity_coordinates": {
        "city": "Cambridge",
        "lat": 52.1975846499999,
        "lon": 0.139153737368743
      },
      "is_mappable": true
    },
    {
      "id": "connection-12",
      "project_name": "AIRR Dawn",
      "project_city": "Cambridge",
      "activity_name": "ISC High Performance, 2025",
      "activity_location": "Hamburg",
      "project_coordinates": {
        "city": "Cambridge",
        "lat": 52.1975846499999,
        "lon": 0.139153737368743
      },
      "activity_coordinates": {
        "city": "Hamburg",
        "lat": 53.551086,
        "lon": 9.993682
      },
      "is_mappable": true
    },
    {
      "id": "connection-13",
      "project_name": "AIRR Dawn",
      "project_city": "Cambridge",
      "activity_name": "RSECon, 2025",
      "activity_location": "Coventry",
      "project_coordinates": {
        "city": "Cambridge",
        "lat": 52.1975846499999,
        "lon": 0.139153737368743
      },
      "activity_coordinates": {
        "city": "Coventry",
        "lat": 52.4068,
        "lon": -1.5197
      },
      "is_mappable": true
    },
    {
      "id": "connection-14",
      "project_name": "ARDC Community Data Lab (CDL) Project",
      "project_city": "Melbourne",
      "activity_name": "ARDC Community Data Lab Co-Design Workshop: Agentic AI for HASS, 2025",
      "activity_location": "Melbourne",
      "project_coordinates": {
        "city": "Melbourne",
        "lat": -37.814,
        "lon": 144.96332
      },
      "activity_coordinates": {
        "city": "Melbourne",
        "lat": -37.814,
        "lon": 144.96332
      },
      "is_mappable": true
    },
    {
      "id": "connection-15",
      "project_name": "ARDC Community Data Lab (CDL) Project",
      "project_city": "Melbourne",
      "activity_name": "Draft Project Plans for the ARDC Community Data Lab \u2014 community feedback activity, 2025",
      "activity_location": "Melbourne",
      "project_coordinates": {
        "city": "Melbourne",
        "lat": -37.814,
        "lon": 144.96332
      },
      "activity_coordinates": {
        "city": "Melbourne",
        "lat": -37.814,
        "lon": 144.96332
      },
      "is_mappable": true
    },
    {
      "id": "connection-16",
      "project_name": "ARDC Community Data Lab (CDL) Project",
      "project_city": "Melbourne",
      "activity_name": "AI Unlocks Museum Dark Data: Graptolite Fossils Revealed, 2026",
      "activity_location": "Melbourne",
      "project_coordinates": {
        "city": "Melbourne",
        "lat": -37.814,
        "lon": 144.96332
      },
      "activity_coordinates": {
        "city": "Melbourne",
        "lat": -37.814,
        "lon": 144.96332
      },
      "is_mappable": true
    },
    {
      "id": "connection-17",
      "project_name": "ARDC Community Data Lab (CDL) Project",
      "project_city": "Melbourne",
      "activity_name": "ARDC Community Data Lab Co-design Workshop: HASS Geospatial Capability, 2026",
      "activity_location": "Melbourne",
      "project_coordinates": {
        "city": "Melbourne",
        "lat": -37.814,
        "lon": 144.96332
      },
      "activity_coordinates": {
        "city": "Melbourne",
        "lat": -37.814,
        "lon": 144.96332
      },
      "is_mappable": true
    },
    {
      "id": "connection-18",
      "project_name": "ARDC Nectar Research Cloud",
      "project_city": "Melbourne",
      "activity_name": "ARDC & Pawsey Nectar Research Cloud Showcase, 2025",
      "activity_location": "Adelaide",
      "project_coordinates": {
        "city": "Melbourne",
        "lat": -37.814,
        "lon": 144.96332
      },
      "activity_coordinates": {
        "city": "Adelaide",
        "lat": -34.9285,
        "lon": 138.6007
      },
      "is_mappable": true
    },
    {
      "id": "connection-19",
      "project_name": "ARDC Nectar Research Cloud",
      "project_city": "Melbourne",
      "activity_name": "Innovation Bytes: Unlock Powerful Research Computing with Nectar Cloud, 2025",
      "activity_location": "Adelaide",
      "project_coordinates": {
        "city": "Melbourne",
        "lat": -37.814,
        "lon": 144.96332
      },
      "activity_coordinates": {
        "city": "Adelaide",
        "lat": -34.9285,
        "lon": 138.6007
      },
      "is_mappable": true
    },
    {
      "id": "connection-20",
      "project_name": "ARDC Nectar Research Cloud",
      "project_city": "Melbourne",
      "activity_name": "ARDC & Pawsey Nectar Research Cloud Showcase, 2026",
      "activity_location": "Perth, Australia",
      "project_coordinates": {
        "city": "Melbourne",
        "lat": -37.814,
        "lon": 144.96332
      },
      "activity_coordinates": {
        "city": "Perth, Australia",
        "lat": -31.9523,
        "lon": 115.8613
      },
      "is_mappable": true
    },
    {
      "id": "connection-21",
      "project_name": "ARDC Nectar Research Cloud",
      "project_city": "Melbourne",
      "activity_name": "Getting Started with the Nectar Research Cloud, 2026",
      "activity_location": "Perth, Australia",
      "project_coordinates": {
        "city": "Melbourne",
        "lat": -37.814,
        "lon": 144.96332
      },
      "activity_coordinates": {
        "city": "Perth, Australia",
        "lat": -31.9523,
        "lon": 115.8613
      },
      "is_mappable": true
    },
    {
      "id": "connection-22",
      "project_name": "ARDC Nectar Research Cloud",
      "project_city": "Melbourne",
      "activity_name": "Fast, interactive computing on the ARDC Nectar Research Cloud at Digital Health Festival, 2026",
      "activity_location": "Melbourne",
      "project_coordinates": {
        "city": "Melbourne",
        "lat": -37.814,
        "lon": 144.96332
      },
      "activity_coordinates": {
        "city": "Melbourne",
        "lat": -37.814,
        "lon": 144.96332
      },
      "is_mappable": true
    },
    {
      "id": "connection-23",
      "project_name": "Australian Access Federation (AAF)",
      "project_city": "",
      "activity_name": "Digital Archipelagos: Digital Humanities Australasia, 2025",
      "activity_location": "Canberra",
      "project_coordinates": null,
      "activity_coordinates": {
        "city": "Canberra",
        "lat": -35.2809,
        "lon": 149.13
      },
      "is_mappable": false
    },
    {
      "id": "connection-24",
      "project_name": "Australian Access Federation (AAF)",
      "project_city": "",
      "activity_name": "eResearch Australasia Conference, 2025",
      "activity_location": "Brisbane",
      "project_coordinates": null,
      "activity_coordinates": {
        "city": "Brisbane",
        "lat": -27.46794,
        "lon": 153.02809
      },
      "is_mappable": false
    },
    {
      "id": "connection-25",
      "project_name": "Australian Access Federation (AAF)",
      "project_city": "",
      "activity_name": "TERN Science Symposium, 2025",
      "activity_location": "Brisbane",
      "project_coordinates": null,
      "activity_coordinates": {
        "city": "Brisbane",
        "lat": -27.46794,
        "lon": 153.02809
      },
      "is_mappable": false
    },
    {
      "id": "connection-26",
      "project_name": "Australian Access Federation (AAF)",
      "project_city": "",
      "activity_name": "ResBaz Queensland, 2025",
      "activity_location": "Petrie",
      "project_coordinates": null,
      "activity_coordinates": {
        "city": "Petrie",
        "lat": -27.2667,
        "lon": 152.9833
      },
      "is_mappable": false
    },
    {
      "id": "connection-27",
      "project_name": "Australian Access Federation (AAF)",
      "project_city": "",
      "activity_name": "eResearch Australasia Conference, 2024",
      "activity_location": "Melbourne",
      "project_coordinates": null,
      "activity_coordinates": {
        "city": "Melbourne",
        "lat": -37.814,
        "lon": 144.96332
      },
      "is_mappable": false
    },
    {
      "id": "connection-28",
      "project_name": "Australian Access Federation (AAF)",
      "project_city": "",
      "activity_name": "eResearch Australasia Conference, 2023",
      "activity_location": "Brisbane",
      "project_coordinates": null,
      "activity_coordinates": {
        "city": "Brisbane",
        "lat": -27.46794,
        "lon": 153.02809
      },
      "is_mappable": false
    },
    {
      "id": "connection-29",
      "project_name": "BioFAIR",
      "project_city": "Norwich",
      "activity_name": "BioFAIR Roadshow, 2024",
      "activity_location": "Manchester",
      "project_coordinates": {
        "city": "Norwich",
        "lat": 52.6278,
        "lon": 1.29834
      },
      "activity_coordinates": {
        "city": "Manchester",
        "lat": 53.483959,
        "lon": -2.244644
      },
      "is_mappable": true
    },
    {
      "id": "connection-30",
      "project_name": "BioFAIR",
      "project_city": "Norwich",
      "activity_name": "BioFAIR Roadshow, 2024",
      "activity_location": "Bradford",
      "project_coordinates": {
        "city": "Norwich",
        "lat": 52.6278,
        "lon": 1.29834
      },
      "activity_coordinates": {
        "city": "Bradford",
        "lat": 53.799999,
        "lon": -1.75
      },
      "is_mappable": true
    },
    {
      "id": "connection-31",
      "project_name": "BioFAIR",
      "project_city": "Norwich",
      "activity_name": "BioFAIR Roadshow, 2024",
      "activity_location": "Exeter",
      "project_coordinates": {
        "city": "Norwich",
        "lat": 52.6278,
        "lon": 1.29834
      },
      "activity_coordinates": {
        "city": "Exeter",
        "lat": 50.716667,
        "lon": -3.533333
      },
      "is_mappable": true
    },
    {
      "id": "connection-32",
      "project_name": "BioFAIR",
      "project_city": "Norwich",
      "activity_name": "BioFAIR Roadshow, 2024",
      "activity_location": "Cardiff",
      "project_coordinates": {
        "city": "Norwich",
        "lat": 52.6278,
        "lon": 1.29834
      },
      "activity_coordinates": {
        "city": "Cardiff",
        "lat": 51.481583,
        "lon": -3.17909
      },
      "is_mappable": true
    },
    {
      "id": "connection-33",
      "project_name": "BioFAIR",
      "project_city": "Norwich",
      "activity_name": "BioFAIR Roadshow, 2024",
      "activity_location": "Edinburgh",
      "project_coordinates": {
        "city": "Norwich",
        "lat": 52.6278,
        "lon": 1.29834
      },
      "activity_coordinates": {
        "city": "Edinburgh",
        "lat": 55.9533456,
        "lon": -3.1883749
      },
      "is_mappable": true
    },
    {
      "id": "connection-34",
      "project_name": "BioFAIR",
      "project_city": "Norwich",
      "activity_name": "BioFAIR Roadshow, 2024",
      "activity_location": "Belfast",
      "project_coordinates": {
        "city": "Norwich",
        "lat": 52.6278,
        "lon": 1.29834
      },
      "activity_coordinates": {
        "city": "Belfast",
        "lat": 54.607868,
        "lon": -5.926437
      },
      "is_mappable": true
    },
    {
      "id": "connection-35",
      "project_name": "BioFAIR",
      "project_city": "Norwich",
      "activity_name": "BioFAIR Roadshow, 2024",
      "activity_location": "Birmingham",
      "project_coordinates": {
        "city": "Norwich",
        "lat": 52.6278,
        "lon": 1.29834
      },
      "activity_coordinates": {
        "city": "Birmingham",
        "lat": 52.48142,
        "lon": -1.89983
      },
      "is_mappable": true
    },
    {
      "id": "connection-36",
      "project_name": "BioFAIR",
      "project_city": "Norwich",
      "activity_name": "BioFAIR Roadshow, 2024",
      "activity_location": "London",
      "project_coordinates": {
        "city": "Norwich",
        "lat": 52.6278,
        "lon": 1.29834
      },
      "activity_coordinates": {
        "city": "London",
        "lat": 51.507351,
        "lon": -0.127758
      },
      "is_mappable": true
    },
    {
      "id": "connection-37",
      "project_name": "BioFAIR",
      "project_city": "Norwich",
      "activity_name": "BioFAIR Roadshow, 2024",
      "activity_location": "Norwich",
      "project_coordinates": {
        "city": "Norwich",
        "lat": 52.6278,
        "lon": 1.29834
      },
      "activity_coordinates": {
        "city": "Norwich",
        "lat": 52.6278,
        "lon": 1.29834
      },
      "is_mappable": true
    },
    {
      "id": "connection-38",
      "project_name": "BioFAIR",
      "project_city": "Norwich",
      "activity_name": "DRI webinar series: BioFAIR, 2026",
      "activity_location": "Online",
      "project_coordinates": {
        "city": "Norwich",
        "lat": 52.6278,
        "lon": 1.29834
      },
      "activity_coordinates": null,
      "is_mappable": false
    },
    {
      "id": "connection-39",
      "project_name": "BioFAIR",
      "project_city": "Norwich",
      "activity_name": "ELIXIR All Hands, 2024",
      "activity_location": "Uppsala, Sweden",
      "project_coordinates": {
        "city": "Norwich",
        "lat": 52.6278,
        "lon": 1.29834
      },
      "activity_coordinates": {
        "city": "Uppsala, Sweden",
        "lat": 59.85882,
        "lon": 17.63889
      },
      "is_mappable": true
    },
    {
      "id": "connection-40",
      "project_name": "BioFAIR",
      "project_city": "Norwich",
      "activity_name": "UKAN Ageing Networks Joint Meeting, 2025",
      "activity_location": "Liverpool",
      "project_coordinates": {
        "city": "Norwich",
        "lat": 52.6278,
        "lon": 1.29834
      },
      "activity_coordinates": {
        "city": "Liverpool",
        "lat": 53.41058,
        "lon": -2.97794
      },
      "is_mappable": true
    },
    {
      "id": "connection-41",
      "project_name": "Computational Abilities Knowledge Exchange (CAKE)",
      "project_city": "Edinburgh",
      "activity_name": "ARCHER2 Celebration of Science, 2025",
      "activity_location": "Edinburgh",
      "project_coordinates": {
        "city": "Edinburgh",
        "lat": 55.9533456,
        "lon": -3.1883749
      },
      "activity_coordinates": {
        "city": "Edinburgh",
        "lat": 55.9533456,
        "lon": -3.1883749
      },
      "is_mappable": true
    },
    {
      "id": "connection-42",
      "project_name": "Computational Abilities Knowledge Exchange (CAKE)",
      "project_city": "Edinburgh",
      "activity_name": "ARCHER2 Celebration of Science, 2026",
      "activity_location": "Edinburgh",
      "project_coordinates": {
        "city": "Edinburgh",
        "lat": 55.9533456,
        "lon": -3.1883749
      },
      "activity_coordinates": {
        "city": "Edinburgh",
        "lat": 55.9533456,
        "lon": -3.1883749
      },
      "is_mappable": true
    },
    {
      "id": "connection-43",
      "project_name": "Computational Abilities Knowledge Exchange (CAKE)",
      "project_city": "Edinburgh",
      "activity_name": "Championing Green Digital Research Workshop, 2026",
      "activity_location": "Edinburgh",
      "project_coordinates": {
        "city": "Edinburgh",
        "lat": 55.9533456,
        "lon": -3.1883749
      },
      "activity_coordinates": {
        "city": "Edinburgh",
        "lat": 55.9533456,
        "lon": -3.1883749
      },
      "is_mappable": true
    },
    {
      "id": "connection-44",
      "project_name": "Computational Abilities Knowledge Exchange (CAKE)",
      "project_city": "Edinburgh",
      "activity_name": "CIUK conference, 2025",
      "activity_location": "Manchester",
      "project_coordinates": {
        "city": "Edinburgh",
        "lat": 55.9533456,
        "lon": -3.1883749
      },
      "activity_coordinates": {
        "city": "Manchester",
        "lat": 53.483959,
        "lon": -2.244644
      },
      "is_mappable": true
    },
    {
      "id": "connection-45",
      "project_name": "Computational Abilities Knowledge Exchange (CAKE)",
      "project_city": "Edinburgh",
      "activity_name": "Collaborations Workshop, 2026",
      "activity_location": "Belfast",
      "project_coordinates": {
        "city": "Edinburgh",
        "lat": 55.9533456,
        "lon": -3.1883749
      },
      "activity_coordinates": {
        "city": "Belfast",
        "lat": 54.607868,
        "lon": -5.926437
      },
      "is_mappable": true
    },
    {
      "id": "connection-46",
      "project_name": "Computational Abilities Knowledge Exchange (CAKE)",
      "project_city": "Edinburgh",
      "activity_name": "DRI Congress, 2025",
      "activity_location": "Leeds",
      "project_coordinates": {
        "city": "Edinburgh",
        "lat": 55.9533456,
        "lon": -3.1883749
      },
      "activity_coordinates": {
        "city": "Leeds",
        "lat": 53.801277,
        "lon": -1.548567
      },
      "is_mappable": true
    },
    {
      "id": "connection-47",
      "project_name": "Computational Abilities Knowledge Exchange (CAKE)",
      "project_city": "Edinburgh",
      "activity_name": "Durham HPC days, 2025",
      "activity_location": "Durham",
      "project_coordinates": {
        "city": "Edinburgh",
        "lat": 55.9533456,
        "lon": -3.1883749
      },
      "activity_coordinates": {
        "city": "Durham",
        "lat": 54.7761,
        "lon": -1.5733
      },
      "is_mappable": true
    },
    {
      "id": "connection-48",
      "project_name": "Computational Abilities Knowledge Exchange (CAKE)",
      "project_city": "Edinburgh",
      "activity_name": "Durham HPC days, 2026",
      "activity_location": "Durham",
      "project_coordinates": {
        "city": "Edinburgh",
        "lat": 55.9533456,
        "lon": -3.1883749
      },
      "activity_coordinates": {
        "city": "Durham",
        "lat": 54.7761,
        "lon": -1.5733
      },
      "is_mappable": true
    },
    {
      "id": "connection-49",
      "project_name": "Computational Abilities Knowledge Exchange (CAKE)",
      "project_city": "Edinburgh",
      "activity_name": "EuroHPC, 2026",
      "activity_location": "Luxembourg",
      "project_coordinates": {
        "city": "Edinburgh",
        "lat": 55.9533456,
        "lon": -3.1883749
      },
      "activity_coordinates": {
        "city": "Luxembourg",
        "lat": 49.611622,
        "lon": 6.131935
      },
      "is_mappable": true
    },
    {
      "id": "connection-50",
      "project_name": "Computational Abilities Knowledge Exchange (CAKE)",
      "project_city": "Edinburgh",
      "activity_name": "ISC High Performance, 2026",
      "activity_location": "Hamburg",
      "project_coordinates": {
        "city": "Edinburgh",
        "lat": 55.9533456,
        "lon": -3.1883749
      },
      "activity_coordinates": {
        "city": "Hamburg",
        "lat": 53.551086,
        "lon": 9.993682
      },
      "is_mappable": true
    },
    {
      "id": "connection-51",
      "project_name": "Computational Abilities Knowledge Exchange (CAKE)",
      "project_city": "Edinburgh",
      "activity_name": "Research Software Camp, 2025",
      "activity_location": "Online",
      "project_coordinates": {
        "city": "Edinburgh",
        "lat": 55.9533456,
        "lon": -3.1883749
      },
      "activity_coordinates": null,
      "is_mappable": false
    },
    {
      "id": "connection-52",
      "project_name": "Computational Abilities Knowledge Exchange (CAKE)",
      "project_city": "Edinburgh",
      "activity_name": "RSECon, 2025",
      "activity_location": "Warwick",
      "project_coordinates": {
        "city": "Edinburgh",
        "lat": 55.9533456,
        "lon": -3.1883749
      },
      "activity_coordinates": {
        "city": "Warwick",
        "lat": 52.28333,
        "lon": -1.58333
      },
      "is_mappable": true
    },
    {
      "id": "connection-53",
      "project_name": "Computational Abilities Knowledge Exchange (CAKE)",
      "project_city": "Edinburgh",
      "activity_name": "SC, 2025",
      "activity_location": "St. Louis",
      "project_coordinates": {
        "city": "Edinburgh",
        "lat": 55.9533456,
        "lon": -3.1883749
      },
      "activity_coordinates": {
        "city": "St. Louis",
        "lat": 38.627,
        "lon": -90.1994
      },
      "is_mappable": true
    },
    {
      "id": "connection-54",
      "project_name": "Computational Abilities Knowledge Exchange (CAKE)",
      "project_city": "Edinburgh",
      "activity_name": "ScotRSE, 2026",
      "activity_location": "Dundee",
      "project_coordinates": {
        "city": "Edinburgh",
        "lat": 55.9533456,
        "lon": -3.1883749
      },
      "activity_coordinates": {
        "city": "Dundee",
        "lat": 56.462,
        "lon": -2.971
      },
      "is_mappable": true
    },
    {
      "id": "connection-55",
      "project_name": "Computational Science Centre for Research Communities (CoSeC)",
      "project_city": "Harwell",
      "activity_name": "CIL User Meeting, 2024",
      "activity_location": "Oxfordshire",
      "project_coordinates": {
        "city": "Harwell",
        "lat": 51.59997,
        "lon": -1.29092
      },
      "activity_coordinates": {
        "city": "Oxfordshire",
        "lat": 51.8,
        "lon": -1.266667
      },
      "is_mappable": true
    },
    {
      "id": "connection-56",
      "project_name": "Computational Science Centre for Research Communities (CoSeC)",
      "project_city": "Harwell",
      "activity_name": "Community Forum, 2025",
      "activity_location": "Sheffield",
      "project_coordinates": {
        "city": "Harwell",
        "lat": 51.59997,
        "lon": -1.29092
      },
      "activity_coordinates": {
        "city": "Sheffield",
        "lat": 53.383331,
        "lon": -1.466667
      },
      "is_mappable": true
    },
    {
      "id": "connection-57",
      "project_name": "Computational Science Centre for Research Communities (CoSeC)",
      "project_city": "Harwell",
      "activity_name": "CoSeC Conference, 2024",
      "activity_location": "Manchester",
      "project_coordinates": {
        "city": "Harwell",
        "lat": 51.59997,
        "lon": -1.29092
      },
      "activity_coordinates": {
        "city": "Manchester",
        "lat": 53.483959,
        "lon": -2.244644
      },
      "is_mappable": true
    },
    {
      "id": "connection-58",
      "project_name": "Computational Science Centre for Research Communities (CoSeC)",
      "project_city": "Harwell",
      "activity_name": "CoSeC Conference, 2025",
      "activity_location": "Manchester",
      "project_coordinates": {
        "city": "Harwell",
        "lat": 51.59997,
        "lon": -1.29092
      },
      "activity_coordinates": {
        "city": "Manchester",
        "lat": 53.483959,
        "lon": -2.244644
      },
      "is_mappable": true
    },
    {
      "id": "connection-59",
      "project_name": "Computational Science Centre for Research Communities (CoSeC)",
      "project_city": "Harwell",
      "activity_name": "CoSeC Year-end Forum, 2025",
      "activity_location": "Manchester",
      "project_coordinates": {
        "city": "Harwell",
        "lat": 51.59997,
        "lon": -1.29092
      },
      "activity_coordinates": {
        "city": "Manchester",
        "lat": 53.483959,
        "lon": -2.244644
      },
      "is_mappable": true
    },
    {
      "id": "connection-60",
      "project_name": "Computational Science Centre for Research Communities (CoSeC)",
      "project_city": "Harwell",
      "activity_name": "Energy Efficient Computing workshop, 2025",
      "activity_location": "Oxfordshire",
      "project_coordinates": {
        "city": "Harwell",
        "lat": 51.59997,
        "lon": -1.29092
      },
      "activity_coordinates": {
        "city": "Oxfordshire",
        "lat": 51.8,
        "lon": -1.266667
      },
      "is_mappable": true
    },
    {
      "id": "connection-61",
      "project_name": "Computational Science Centre for Research Communities (CoSeC)",
      "project_city": "Harwell",
      "activity_name": "Town Hall Meeting, 2024",
      "activity_location": "Manchester",
      "project_coordinates": {
        "city": "Harwell",
        "lat": 51.59997,
        "lon": -1.29092
      },
      "activity_coordinates": {
        "city": "Manchester",
        "lat": 53.483959,
        "lon": -2.244644
      },
      "is_mappable": true
    },
    {
      "id": "connection-62",
      "project_name": "DARE UK",
      "project_city": "London",
      "activity_name": "ADR UK Conference, 2025",
      "activity_location": "Cardiff",
      "project_coordinates": {
        "city": "London",
        "lat": 51.507351,
        "lon": -0.127758
      },
      "activity_coordinates": {
        "city": "Cardiff",
        "lat": 51.481583,
        "lon": -3.17909
      },
      "is_mappable": true
    },
    {
      "id": "connection-63",
      "project_name": "DARE UK",
      "project_city": "London",
      "activity_name": "HDR UK Conference, 2025",
      "activity_location": "Glasgow",
      "project_coordinates": {
        "city": "London",
        "lat": 51.507351,
        "lon": -0.127758
      },
      "activity_coordinates": {
        "city": "Glasgow",
        "lat": 55.86515,
        "lon": -4.25763
      },
      "is_mappable": true
    },
    {
      "id": "connection-64",
      "project_name": "eCSE: ARCHER Code",
      "project_city": "Edinburgh",
      "activity_name": "ARCHER2 Celebration of Science, 2024",
      "activity_location": "Edinburgh",
      "project_coordinates": {
        "city": "Edinburgh",
        "lat": 55.9533456,
        "lon": -3.1883749
      },
      "activity_coordinates": {
        "city": "Edinburgh",
        "lat": 55.9533456,
        "lon": -3.1883749
      },
      "is_mappable": true
    },
    {
      "id": "connection-65",
      "project_name": "eCSE: ARCHER Code",
      "project_city": "Edinburgh",
      "activity_name": "ARCHER2 Celebration of Science, 2025",
      "activity_location": "Edinburgh",
      "project_coordinates": {
        "city": "Edinburgh",
        "lat": 55.9533456,
        "lon": -3.1883749
      },
      "activity_coordinates": {
        "city": "Edinburgh",
        "lat": 55.9533456,
        "lon": -3.1883749
      },
      "is_mappable": true
    },
    {
      "id": "connection-66",
      "project_name": "eCSE: ARCHER Code",
      "project_city": "Edinburgh",
      "activity_name": "ARCHER2 Celebration of Science, 2026",
      "activity_location": "Edinburgh",
      "project_coordinates": {
        "city": "Edinburgh",
        "lat": 55.9533456,
        "lon": -3.1883749
      },
      "activity_coordinates": {
        "city": "Edinburgh",
        "lat": 55.9533456,
        "lon": -3.1883749
      },
      "is_mappable": true
    },
    {
      "id": "connection-67",
      "project_name": "eCSE: ARCHER Code",
      "project_city": "Edinburgh",
      "activity_name": "ISC High Performance, 2024",
      "activity_location": "Hamburg",
      "project_coordinates": {
        "city": "Edinburgh",
        "lat": 55.9533456,
        "lon": -3.1883749
      },
      "activity_coordinates": {
        "city": "Hamburg",
        "lat": 53.551086,
        "lon": 9.993682
      },
      "is_mappable": true
    },
    {
      "id": "connection-68",
      "project_name": "eCSE: ARCHER Code",
      "project_city": "Edinburgh",
      "activity_name": "Modern C++ for Computational Scientists, 2018",
      "activity_location": "Online",
      "project_coordinates": {
        "city": "Edinburgh",
        "lat": 55.9533456,
        "lon": -3.1883749
      },
      "activity_coordinates": null,
      "is_mappable": false
    },
    {
      "id": "connection-69",
      "project_name": "eCSE: ARCHER Code",
      "project_city": "Edinburgh",
      "activity_name": "Modern C++ for Computational Scientists, 2021",
      "activity_location": "Online",
      "project_coordinates": {
        "city": "Edinburgh",
        "lat": 55.9533456,
        "lon": -3.1883749
      },
      "activity_coordinates": null,
      "is_mappable": false
    },
    {
      "id": "connection-70",
      "project_name": "eCSE: ARCHER Code",
      "project_city": "Edinburgh",
      "activity_name": "Modern C++ for Computational Scientists, 2023",
      "activity_location": "Online",
      "project_coordinates": {
        "city": "Edinburgh",
        "lat": 55.9533456,
        "lon": -3.1883749
      },
      "activity_coordinates": null,
      "is_mappable": false
    },
    {
      "id": "connection-71",
      "project_name": "eCSE: ARCHER Code",
      "project_city": "Edinburgh",
      "activity_name": "Modern C++ for Computational Scientists, 2024",
      "activity_location": "Online",
      "project_coordinates": {
        "city": "Edinburgh",
        "lat": 55.9533456,
        "lon": -3.1883749
      },
      "activity_coordinates": null,
      "is_mappable": false
    },
    {
      "id": "connection-72",
      "project_name": "eCSE: ARCHER Code",
      "project_city": "Edinburgh",
      "activity_name": "Modern C++ for Computational Scientists, 2025",
      "activity_location": "York",
      "project_coordinates": {
        "city": "Edinburgh",
        "lat": 55.9533456,
        "lon": -3.1883749
      },
      "activity_coordinates": {
        "city": "York",
        "lat": 53.959,
        "lon": -1.0815
      },
      "is_mappable": true
    },
    {
      "id": "connection-73",
      "project_name": "eCSE: ARCHER Code",
      "project_city": "Edinburgh",
      "activity_name": "Modern C++ for Computational Scientists, 2026",
      "activity_location": "Online",
      "project_coordinates": {
        "city": "Edinburgh",
        "lat": 55.9533456,
        "lon": -3.1883749
      },
      "activity_coordinates": null,
      "is_mappable": false
    },
    {
      "id": "connection-74",
      "project_name": "eCSE: ARCHER Code",
      "project_city": "Edinburgh",
      "activity_name": "Using ARCHER2 Efficiently, 2021",
      "activity_location": "Online",
      "project_coordinates": {
        "city": "Edinburgh",
        "lat": 55.9533456,
        "lon": -3.1883749
      },
      "activity_coordinates": null,
      "is_mappable": false
    },
    {
      "id": "connection-75",
      "project_name": "eCSE: ARCHER Code",
      "project_city": "Edinburgh",
      "activity_name": "Using ARCHER2 Efficiently, 2025",
      "activity_location": "Online",
      "project_coordinates": {
        "city": "Edinburgh",
        "lat": 55.9533456,
        "lon": -3.1883749
      },
      "activity_coordinates": null,
      "is_mappable": false
    },
    {
      "id": "connection-76",
      "project_name": "Environmental Data Service",
      "project_city": "",
      "activity_name": "API for AI Project Kick-off Workshop, 2024",
      "activity_location": "Nottingham",
      "project_coordinates": null,
      "activity_coordinates": {
        "city": "Nottingham",
        "lat": 52.871,
        "lon": -1.09
      },
      "is_mappable": false
    },
    {
      "id": "connection-77",
      "project_name": "Environmental Data Service",
      "project_city": "",
      "activity_name": "Community Workshop on Environmental Model Code of Long-Term Value, 2023",
      "activity_location": "Lancaster",
      "project_coordinates": null,
      "activity_coordinates": {
        "city": "Lancaster",
        "lat": 54.047,
        "lon": -2.801
      },
      "is_mappable": false
    },
    {
      "id": "connection-78",
      "project_name": "Environmental Data Service",
      "project_city": "",
      "activity_name": "EGU General Assembly, 2024",
      "activity_location": "Vienna",
      "project_coordinates": null,
      "activity_coordinates": {
        "city": "Vienna",
        "lat": 48.2082,
        "lon": 16.3738
      },
      "is_mappable": false
    },
    {
      "id": "connection-79",
      "project_name": "Environmental Data Service",
      "project_city": "",
      "activity_name": "EGU General Assembly, 2025",
      "activity_location": "Vienna",
      "project_coordinates": null,
      "activity_coordinates": {
        "city": "Vienna",
        "lat": 48.2082,
        "lon": 16.3738
      },
      "is_mappable": false
    },
    {
      "id": "connection-80",
      "project_name": "Environmental Data Service",
      "project_city": "",
      "activity_name": "Federation Across Domains World Caf\u00e9, 2023",
      "activity_location": "Norwich",
      "project_coordinates": null,
      "activity_coordinates": {
        "city": "Norwich",
        "lat": 52.6278,
        "lon": 1.29834
      },
      "is_mappable": false
    },
    {
      "id": "connection-81",
      "project_name": "Environmental Data Service",
      "project_city": "",
      "activity_name": "Harwell Open Day, 2024",
      "activity_location": "Harwell",
      "project_coordinates": null,
      "activity_coordinates": {
        "city": "Harwell",
        "lat": 51.59997,
        "lon": -1.29092
      },
      "is_mappable": false
    },
    {
      "id": "connection-82",
      "project_name": "Environmental Data Service",
      "project_city": "",
      "activity_name": "NERC Digital Gathering, 2024",
      "activity_location": "Manchester",
      "project_coordinates": null,
      "activity_coordinates": {
        "city": "Manchester",
        "lat": 53.483959,
        "lon": -2.244644
      },
      "is_mappable": false
    },
    {
      "id": "connection-83",
      "project_name": "Environmental Data Service",
      "project_city": "",
      "activity_name": "NERC Digital Gathering, 2025",
      "activity_location": "Cranfield",
      "project_coordinates": null,
      "activity_coordinates": {
        "city": "Cranfield",
        "lat": 52.073,
        "lon": -0.627
      },
      "is_mappable": false
    },
    {
      "id": "connection-84",
      "project_name": "Environmental Data Service",
      "project_city": "",
      "activity_name": "NERC Digital Gathering, 2026",
      "activity_location": "Stirling",
      "project_coordinates": null,
      "activity_coordinates": {
        "city": "Stirling",
        "lat": 56.1165,
        "lon": -3.9369
      },
      "is_mappable": false
    },
    {
      "id": "connection-85",
      "project_name": "Environmental Data Service",
      "project_city": "",
      "activity_name": "PCST, 2025",
      "activity_location": "Aberdeen",
      "project_coordinates": null,
      "activity_coordinates": {
        "city": "Aberdeen",
        "lat": 57.1497,
        "lon": -2.0943
      },
      "is_mappable": false
    },
    {
      "id": "connection-86",
      "project_name": "Environmental Data Service",
      "project_city": "",
      "activity_name": "PV, 2023",
      "activity_location": "Geneva",
      "project_coordinates": null,
      "activity_coordinates": {
        "city": "Geneva",
        "lat": 46.2044,
        "lon": 6.1432
      },
      "is_mappable": false
    },
    {
      "id": "connection-87",
      "project_name": "Harmony: federated data discovery tool",
      "project_city": "London",
      "activity_name": "19th AI and Deep Learning for Enterprise Meetup, 2024",
      "activity_location": "London",
      "project_coordinates": {
        "city": "London",
        "lat": 51.507351,
        "lon": -0.127758
      },
      "activity_coordinates": {
        "city": "London",
        "lat": 51.507351,
        "lon": -0.127758
      },
      "is_mappable": true
    },
    {
      "id": "connection-88",
      "project_name": "Harmony: federated data discovery tool",
      "project_city": "London",
      "activity_name": "AI UK, 2025",
      "activity_location": "London",
      "project_coordinates": {
        "city": "London",
        "lat": 51.507351,
        "lon": -0.127758
      },
      "activity_coordinates": {
        "city": "London",
        "lat": 51.507351,
        "lon": -0.127758
      },
      "is_mappable": true
    },
    {
      "id": "connection-89",
      "project_name": "Harmony: federated data discovery tool",
      "project_city": "London",
      "activity_name": "Building AI for Good, 2025",
      "activity_location": "London",
      "project_coordinates": {
        "city": "London",
        "lat": 51.507351,
        "lon": -0.127758
      },
      "activity_coordinates": {
        "city": "London",
        "lat": 51.507351,
        "lon": -0.127758
      },
      "is_mappable": true
    },
    {
      "id": "connection-90",
      "project_name": "Harmony: federated data discovery tool",
      "project_city": "London",
      "activity_name": "GenAI and LLMs Night at Google London, 2024",
      "activity_location": "London",
      "project_coordinates": {
        "city": "London",
        "lat": 51.507351,
        "lon": -0.127758
      },
      "activity_coordinates": {
        "city": "London",
        "lat": 51.507351,
        "lon": -0.127758
      },
      "is_mappable": true
    },
    {
      "id": "connection-91",
      "project_name": "Harmony: federated data discovery tool",
      "project_city": "London",
      "activity_name": "Harmony at PyData London, 2024",
      "activity_location": "London",
      "project_coordinates": {
        "city": "London",
        "lat": 51.507351,
        "lon": -0.127758
      },
      "activity_coordinates": {
        "city": "London",
        "lat": 51.507351,
        "lon": -0.127758
      },
      "is_mappable": true
    },
    {
      "id": "connection-92",
      "project_name": "Harmony: federated data discovery tool",
      "project_city": "London",
      "activity_name": "Harmony Hackathon, 2024",
      "activity_location": "London",
      "project_coordinates": {
        "city": "London",
        "lat": 51.507351,
        "lon": -0.127758
      },
      "activity_coordinates": {
        "city": "London",
        "lat": 51.507351,
        "lon": -0.127758
      },
      "is_mappable": true
    },
    {
      "id": "connection-93",
      "project_name": "Harmony: federated data discovery tool",
      "project_city": "London",
      "activity_name": "Methods Showcase and MethodsCon: Futures, 2024",
      "activity_location": "Manchester",
      "project_coordinates": {
        "city": "London",
        "lat": 51.507351,
        "lon": -0.127758
      },
      "activity_coordinates": {
        "city": "Manchester",
        "lat": 53.483959,
        "lon": -2.244644
      },
      "is_mappable": true
    },
    {
      "id": "connection-94",
      "project_name": "Harmony: federated data discovery tool",
      "project_city": "London",
      "activity_name": "MQ and DATAMIND Early Career Researcher Workshop, 2025",
      "activity_location": "London",
      "project_coordinates": {
        "city": "London",
        "lat": 51.507351,
        "lon": -0.127758
      },
      "activity_coordinates": {
        "city": "London",
        "lat": 51.507351,
        "lon": -0.127758
      },
      "is_mappable": true
    },
    {
      "id": "connection-95",
      "project_name": "Infrastructure for Digital Arts and Humanities (iDAH)",
      "project_city": "Oxford",
      "activity_name": "Accessing and Interacting with Multidimensional Media Workshop, 2023",
      "activity_location": "Brighton",
      "project_coordinates": {
        "city": "Oxford",
        "lat": 51.752022,
        "lon": -1.257677
      },
      "activity_coordinates": {
        "city": "Brighton",
        "lat": 50.8225,
        "lon": -0.1372
      },
      "is_mappable": true
    },
    {
      "id": "connection-96",
      "project_name": "Infrastructure for Digital Arts and Humanities (iDAH)",
      "project_city": "Oxford",
      "activity_name": "AHRC iDAH/Exeter Digital Summer School, 2023",
      "activity_location": "Exeter",
      "project_coordinates": {
        "city": "Oxford",
        "lat": 51.752022,
        "lon": -1.257677
      },
      "activity_coordinates": {
        "city": "Exeter",
        "lat": 50.716667,
        "lon": -3.533333
      },
      "is_mappable": true
    },
    {
      "id": "connection-97",
      "project_name": "Infrastructure for Digital Arts and Humanities (iDAH)",
      "project_city": "Oxford",
      "activity_name": "Digital Humanities Congress, 2024",
      "activity_location": "Sheffield",
      "project_coordinates": {
        "city": "Oxford",
        "lat": 51.752022,
        "lon": -1.257677
      },
      "activity_coordinates": {
        "city": "Sheffield",
        "lat": 53.383331,
        "lon": -1.466667
      },
      "is_mappable": true
    },
    {
      "id": "connection-98",
      "project_name": "Infrastructure for Digital Arts and Humanities (iDAH)",
      "project_city": "Oxford",
      "activity_name": "Digital Skills in Visual and Material Culture Workshop, 2023",
      "activity_location": "London",
      "project_coordinates": {
        "city": "Oxford",
        "lat": 51.752022,
        "lon": -1.257677
      },
      "activity_coordinates": {
        "city": "London",
        "lat": 51.507351,
        "lon": -0.127758
      },
      "is_mappable": true
    },
    {
      "id": "connection-99",
      "project_name": "Infrastructure for Digital Arts and Humanities (iDAH)",
      "project_city": "Oxford",
      "activity_name": "iDAH Research Software Engineering Steering Group Workshops I and II, 2022",
      "activity_location": "London",
      "project_coordinates": {
        "city": "Oxford",
        "lat": 51.752022,
        "lon": -1.257677
      },
      "activity_coordinates": {
        "city": "London",
        "lat": 51.507351,
        "lon": -0.127758
      },
      "is_mappable": true
    },
    {
      "id": "connection-100",
      "project_name": "Infrastructure for Digital Arts and Humanities (iDAH)",
      "project_city": "Oxford",
      "activity_name": "PyCon Nigeria, 2026",
      "activity_location": "Lagos",
      "project_coordinates": {
        "city": "Oxford",
        "lat": 51.752022,
        "lon": -1.257677
      },
      "activity_coordinates": {
        "city": "Lagos",
        "lat": 6.4541,
        "lon": 3.3894
      },
      "is_mappable": true
    },
    {
      "id": "connection-101",
      "project_name": "Infrastructure for Digital Arts and Humanities (iDAH)",
      "project_city": "Oxford",
      "activity_name": "UK DARIAH Day, 2025",
      "activity_location": "Edinburgh",
      "project_coordinates": {
        "city": "Oxford",
        "lat": 51.752022,
        "lon": -1.257677
      },
      "activity_coordinates": {
        "city": "Edinburgh",
        "lat": 55.9533456,
        "lon": -3.1883749
      },
      "is_mappable": true
    },
    {
      "id": "connection-102",
      "project_name": "Isambard 3",
      "project_city": "Bristol",
      "activity_name": "CoSeC Conference, 2024",
      "activity_location": "Manchester",
      "project_coordinates": {
        "city": "Bristol",
        "lat": 51.4538022,
        "lon": -2.5972985
      },
      "activity_coordinates": {
        "city": "Manchester",
        "lat": 53.483959,
        "lon": -2.244644
      },
      "is_mappable": true
    },
    {
      "id": "connection-103",
      "project_name": "Isambard 3",
      "project_city": "Bristol",
      "activity_name": "CUG, 2025",
      "activity_location": "Jersey",
      "project_coordinates": {
        "city": "Bristol",
        "lat": 51.4538022,
        "lon": -2.5972985
      },
      "activity_coordinates": {
        "city": "Jersey",
        "lat": 40.7178,
        "lon": -74.0431
      },
      "is_mappable": true
    },
    {
      "id": "connection-104",
      "project_name": "Isambard 3",
      "project_city": "Bristol",
      "activity_name": "DiRAC Day, 2024",
      "activity_location": "Cardiff",
      "project_coordinates": {
        "city": "Bristol",
        "lat": 51.4538022,
        "lon": -2.5972985
      },
      "activity_coordinates": {
        "city": "Cardiff",
        "lat": 51.481583,
        "lon": -3.17909
      },
      "is_mappable": true
    },
    {
      "id": "connection-105",
      "project_name": "Isambard 3",
      "project_city": "Bristol",
      "activity_name": "DRI Cybersecurity Strategy Workshop, 2024",
      "activity_location": "Abingdon",
      "project_coordinates": {
        "city": "Bristol",
        "lat": 51.4538022,
        "lon": -2.5972985
      },
      "activity_coordinates": {
        "city": "Abingdon",
        "lat": 51.6708,
        "lon": -1.2829
      },
      "is_mappable": true
    },
    {
      "id": "connection-106",
      "project_name": "Isambard 3",
      "project_city": "Bristol",
      "activity_name": "HPC-SIG Hartree Meeting, 2025",
      "activity_location": "Daresbury",
      "project_coordinates": {
        "city": "Bristol",
        "lat": 51.4538022,
        "lon": -2.5972985
      },
      "activity_coordinates": {
        "city": "Daresbury",
        "lat": 53.3392,
        "lon": -2.6315
      },
      "is_mappable": true
    },
    {
      "id": "connection-107",
      "project_name": "Isambard 3",
      "project_city": "Bristol",
      "activity_name": "Isambard Day, 2025",
      "activity_location": "Bristol",
      "project_coordinates": {
        "city": "Bristol",
        "lat": 51.4538022,
        "lon": -2.5972985
      },
      "activity_coordinates": {
        "city": "Bristol",
        "lat": 51.4538022,
        "lon": -2.5972985
      },
      "is_mappable": true
    },
    {
      "id": "connection-108",
      "project_name": "Isambard 3",
      "project_city": "Bristol",
      "activity_name": "Isambard Summit, 2026",
      "activity_location": "Bristol",
      "project_coordinates": {
        "city": "Bristol",
        "lat": 51.4538022,
        "lon": -2.5972985
      },
      "activity_coordinates": {
        "city": "Bristol",
        "lat": 51.4538022,
        "lon": -2.5972985
      },
      "is_mappable": true
    },
    {
      "id": "connection-109",
      "project_name": "Isambard 3",
      "project_city": "Bristol",
      "activity_name": "ISC, 2023",
      "activity_location": "Hamburg",
      "project_coordinates": {
        "city": "Bristol",
        "lat": 51.4538022,
        "lon": -2.5972985
      },
      "activity_coordinates": {
        "city": "Hamburg",
        "lat": 53.551086,
        "lon": 9.993682
      },
      "is_mappable": true
    },
    {
      "id": "connection-110",
      "project_name": "Isambard 3",
      "project_city": "Bristol",
      "activity_name": "ISC, 2024",
      "activity_location": "Hamburg",
      "project_coordinates": {
        "city": "Bristol",
        "lat": 51.4538022,
        "lon": -2.5972985
      },
      "activity_coordinates": {
        "city": "Hamburg",
        "lat": 53.551086,
        "lon": 9.993682
      },
      "is_mappable": true
    },
    {
      "id": "connection-111",
      "project_name": "JASMIN-X",
      "project_city": "Harwell",
      "activity_name": "Celebrating 30 Years of the Centre for Environmental Data Analysis, 2024",
      "activity_location": "Oxfordshire",
      "project_coordinates": {
        "city": "Harwell",
        "lat": 51.59997,
        "lon": -1.29092
      },
      "activity_coordinates": {
        "city": "Oxfordshire",
        "lat": 51.8,
        "lon": -1.266667
      },
      "is_mappable": true
    },
    {
      "id": "connection-112",
      "project_name": "JASMIN-X",
      "project_city": "Harwell",
      "activity_name": "First EERIE Hackathon, 2023",
      "activity_location": "Bremerhaven",
      "project_coordinates": {
        "city": "Harwell",
        "lat": 51.59997,
        "lon": -1.29092
      },
      "activity_coordinates": {
        "city": "Bremerhaven",
        "lat": 53.5396,
        "lon": 8.5809
      },
      "is_mappable": true
    },
    {
      "id": "connection-113",
      "project_name": "JASMIN-X",
      "project_city": "Harwell",
      "activity_name": "JASMIN User Conference, 2023",
      "activity_location": "Oxfordshire",
      "project_coordinates": {
        "city": "Harwell",
        "lat": 51.59997,
        "lon": -1.29092
      },
      "activity_coordinates": {
        "city": "Oxfordshire",
        "lat": 51.8,
        "lon": -1.266667
      },
      "is_mappable": true
    },
    {
      "id": "connection-114",
      "project_name": "National Computational Infrastructure\u2019s (NCI)",
      "project_city": "Canberra",
      "activity_name": "ADAC14 Symposium, 2024",
      "activity_location": "Sydney",
      "project_coordinates": {
        "city": "Canberra",
        "lat": -35.2809,
        "lon": 149.13
      },
      "activity_coordinates": null,
      "is_mappable": false
    },
    {
      "id": "connection-115",
      "project_name": "National Computational Infrastructure\u2019s (NCI)",
      "project_city": "Canberra",
      "activity_name": "ADAC14 Workshop, 2024",
      "activity_location": "North Wollongong",
      "project_coordinates": {
        "city": "Canberra",
        "lat": -35.2809,
        "lon": 149.13
      },
      "activity_coordinates": {
        "city": "North Wollongong",
        "lat": -34.415,
        "lon": 150.8931
      },
      "is_mappable": true
    },
    {
      "id": "connection-116",
      "project_name": "National Computational Infrastructure\u2019s (NCI)",
      "project_city": "Canberra",
      "activity_name": "Australasian Leadership Computing Symposium, 2023",
      "activity_location": "Canberra",
      "project_coordinates": {
        "city": "Canberra",
        "lat": -35.2809,
        "lon": 149.13
      },
      "activity_coordinates": {
        "city": "Canberra",
        "lat": -35.2809,
        "lon": 149.13
      },
      "is_mappable": true
    },
    {
      "id": "connection-117",
      "project_name": "National Computational Infrastructure\u2019s (NCI)",
      "project_city": "Canberra",
      "activity_name": "CMIP7 Workshop, 2023",
      "activity_location": "Melborne",
      "project_coordinates": {
        "city": "Canberra",
        "lat": -35.2809,
        "lon": 149.13
      },
      "activity_coordinates": null,
      "is_mappable": false
    },
    {
      "id": "connection-118",
      "project_name": "National Computational Infrastructure\u2019s (NCI)",
      "project_city": "Canberra",
      "activity_name": "Integrated Earth, 2023",
      "activity_location": "Canberra",
      "project_coordinates": {
        "city": "Canberra",
        "lat": -35.2809,
        "lon": 149.13
      },
      "activity_coordinates": {
        "city": "Canberra",
        "lat": -35.2809,
        "lon": 149.13
      },
      "is_mappable": true
    },
    {
      "id": "connection-119",
      "project_name": "National Computational Infrastructure\u2019s (NCI)",
      "project_city": "Canberra",
      "activity_name": "Supercomputing Asia, 2023",
      "activity_location": "Singapore",
      "project_coordinates": {
        "city": "Canberra",
        "lat": -35.2809,
        "lon": 149.13
      },
      "activity_coordinates": {
        "city": "Singapore",
        "lat": 1.3521,
        "lon": 103.8198
      },
      "is_mappable": true
    },
    {
      "id": "connection-120",
      "project_name": "National Computational Infrastructure\u2019s (NCI)",
      "project_city": "Canberra",
      "activity_name": "Supercomputing Asia, 2024",
      "activity_location": "Sydney",
      "project_coordinates": {
        "city": "Canberra",
        "lat": -35.2809,
        "lon": 149.13
      },
      "activity_coordinates": null,
      "is_mappable": false
    },
    {
      "id": "connection-121",
      "project_name": "National Federated Compute Services (NFCS) NetworkPlus",
      "project_city": "London",
      "activity_name": "ARCHER2 Celebration of Science, 2026",
      "activity_location": "Edinburgh",
      "project_coordinates": {
        "city": "London",
        "lat": 51.507351,
        "lon": -0.127758
      },
      "activity_coordinates": {
        "city": "Edinburgh",
        "lat": 55.9533456,
        "lon": -3.1883749
      },
      "is_mappable": true
    },
    {
      "id": "connection-122",
      "project_name": "National Federated Compute Services (NFCS) NetworkPlus",
      "project_city": "London",
      "activity_name": "CIUK, 2024",
      "activity_location": "Manchester",
      "project_coordinates": {
        "city": "London",
        "lat": 51.507351,
        "lon": -0.127758
      },
      "activity_coordinates": {
        "city": "Manchester",
        "lat": 53.483959,
        "lon": -2.244644
      },
      "is_mappable": true
    },
    {
      "id": "connection-123",
      "project_name": "National Federated Compute Services (NFCS) NetworkPlus",
      "project_city": "London",
      "activity_name": "Connected for Impact: Exploring federation for industry and public sector, 2025",
      "activity_location": "Daresbury",
      "project_coordinates": {
        "city": "London",
        "lat": 51.507351,
        "lon": -0.127758
      },
      "activity_coordinates": {
        "city": "Daresbury",
        "lat": 53.3392,
        "lon": -2.6315
      },
      "is_mappable": true
    },
    {
      "id": "connection-124",
      "project_name": "National Federated Compute Services (NFCS) NetworkPlus",
      "project_city": "London",
      "activity_name": "Exploring the Role of HPC in the Built Environment",
      "activity_location": "Birmingham",
      "project_coordinates": {
        "city": "London",
        "lat": 51.507351,
        "lon": -0.127758
      },
      "activity_coordinates": {
        "city": "Birmingham",
        "lat": 52.48142,
        "lon": -1.89983
      },
      "is_mappable": true
    },
    {
      "id": "connection-125",
      "project_name": "National Federated Compute Services (NFCS) NetworkPlus",
      "project_city": "London",
      "activity_name": "NFCS \u2013 NetworkPlus Autumn Conference, 2025",
      "activity_location": "Edinburgh",
      "project_coordinates": {
        "city": "London",
        "lat": 51.507351,
        "lon": -0.127758
      },
      "activity_coordinates": {
        "city": "Edinburgh",
        "lat": 55.9533456,
        "lon": -3.1883749
      },
      "is_mappable": true
    },
    {
      "id": "connection-126",
      "project_name": "National Federated Compute Services (NFCS) NetworkPlus",
      "project_city": "London",
      "activity_name": "NFCS \u2013 NetworkPlus Launch Event, 2025",
      "activity_location": "Edinburgh",
      "project_coordinates": {
        "city": "London",
        "lat": 51.507351,
        "lon": -0.127758
      },
      "activity_coordinates": {
        "city": "Edinburgh",
        "lat": 55.9533456,
        "lon": -3.1883749
      },
      "is_mappable": true
    },
    {
      "id": "connection-127",
      "project_name": "National Federated Compute Services (NFCS) NetworkPlus",
      "project_city": "London",
      "activity_name": "NFCS \u2013 NetworkPlus Spring Conference, 2026",
      "activity_location": "Bristol",
      "project_coordinates": {
        "city": "London",
        "lat": 51.507351,
        "lon": -0.127758
      },
      "activity_coordinates": {
        "city": "Bristol",
        "lat": 51.4538022,
        "lon": -2.5972985
      },
      "is_mappable": true
    },
    {
      "id": "connection-128",
      "project_name": "National Federated Compute Services (NFCS) NetworkPlus",
      "project_city": "London",
      "activity_name": "NFCS NetworkPlus Launch Event, 2025",
      "activity_location": "London",
      "project_coordinates": {
        "city": "London",
        "lat": 51.507351,
        "lon": -0.127758
      },
      "activity_coordinates": {
        "city": "London",
        "lat": 51.507351,
        "lon": -0.127758
      },
      "is_mappable": true
    },
    {
      "id": "connection-129",
      "project_name": "National Federated Compute Services (NFCS) NetworkPlus",
      "project_city": "London",
      "activity_name": "Understanding challenges and enablers to the use of HPC to enhance healthcare research",
      "activity_location": "London",
      "project_coordinates": {
        "city": "London",
        "lat": 51.507351,
        "lon": -0.127758
      },
      "activity_coordinates": {
        "city": "London",
        "lat": 51.507351,
        "lon": -0.127758
      },
      "is_mappable": true
    },
    {
      "id": "connection-130",
      "project_name": "Physical Sciences Data Infrastructure (PSDI)",
      "project_city": "Harwell",
      "activity_name": "PSDI Townhall, 2024",
      "activity_location": "London",
      "project_coordinates": {
        "city": "Harwell",
        "lat": 51.59997,
        "lon": -1.29092
      },
      "activity_coordinates": {
        "city": "London",
        "lat": 51.507351,
        "lon": -0.127758
      },
      "is_mappable": true
    },
    {
      "id": "connection-131",
      "project_name": "Physical Sciences Data Infrastructure (PSDI)",
      "project_city": "Harwell",
      "activity_name": "PSDI Community Workshop-Edinburgh, 2024",
      "activity_location": "Edinburgh",
      "project_coordinates": {
        "city": "Harwell",
        "lat": 51.59997,
        "lon": -1.29092
      },
      "activity_coordinates": {
        "city": "Edinburgh",
        "lat": 55.9533456,
        "lon": -3.1883749
      },
      "is_mappable": true
    },
    {
      "id": "connection-132",
      "project_name": "Physical Sciences Data Infrastructure (PSDI)",
      "project_city": "Harwell",
      "activity_name": "PSDI Community Workshop-Southampton, 2024",
      "activity_location": "Southampton",
      "project_coordinates": {
        "city": "Harwell",
        "lat": 51.59997,
        "lon": -1.29092
      },
      "activity_coordinates": {
        "city": "Southampton",
        "lat": 50.909698,
        "lon": -1.404351
      },
      "is_mappable": true
    },
    {
      "id": "connection-133",
      "project_name": "Physical Sciences Data Infrastructure (PSDI)",
      "project_city": "Harwell",
      "activity_name": "KnowLedger: An Open Ecosystem for Research Data Management, 2024",
      "activity_location": "Southampton",
      "project_coordinates": {
        "city": "Harwell",
        "lat": 51.59997,
        "lon": -1.29092
      },
      "activity_coordinates": {
        "city": "Southampton",
        "lat": 50.909698,
        "lon": -1.404351
      },
      "is_mappable": true
    },
    {
      "id": "connection-134",
      "project_name": "Physical Sciences Data Infrastructure (PSDI)",
      "project_city": "Harwell",
      "activity_name": "Research Data in the Physical Sciences: A Forum for Librarians and Research Support Professionals, 2025",
      "activity_location": "Edinburgh",
      "project_coordinates": {
        "city": "Harwell",
        "lat": 51.59997,
        "lon": -1.29092
      },
      "activity_coordinates": {
        "city": "Edinburgh",
        "lat": 55.9533456,
        "lon": -3.1883749
      },
      "is_mappable": true
    },
    {
      "id": "connection-135",
      "project_name": "Physical Sciences Data Infrastructure (PSDI)",
      "project_city": "Harwell",
      "activity_name": "Polymer Workshop-FAIR access for everyone, 2025",
      "activity_location": "Loughborough",
      "project_coordinates": {
        "city": "Harwell",
        "lat": 51.59997,
        "lon": -1.29092
      },
      "activity_coordinates": null,
      "is_mappable": false
    },
    {
      "id": "connection-136",
      "project_name": "Physical Sciences Data Infrastructure (PSDI)",
      "project_city": "Harwell",
      "activity_name": "Units, Symbols, and Terminology in the Physical Sciences in and for the Digital Era, 2025",
      "activity_location": "London",
      "project_coordinates": {
        "city": "Harwell",
        "lat": 51.59997,
        "lon": -1.29092
      },
      "activity_coordinates": {
        "city": "London",
        "lat": 51.507351,
        "lon": -0.127758
      },
      "is_mappable": true
    },
    {
      "id": "connection-137",
      "project_name": "Physical Sciences Data Infrastructure (PSDI)",
      "project_city": "Harwell",
      "activity_name": "Chemical and Materials Machine Learning School, 2025",
      "activity_location": "Daresbury",
      "project_coordinates": {
        "city": "Harwell",
        "lat": 51.59997,
        "lon": -1.29092
      },
      "activity_coordinates": {
        "city": "Daresbury",
        "lat": 53.3392,
        "lon": -2.6315
      },
      "is_mappable": true
    },
    {
      "id": "connection-138",
      "project_name": "Physical Sciences Data Infrastructure (PSDI)",
      "project_city": "Harwell",
      "activity_name": "How to solve a problem like Electronic Research Notebooks: a community ERN discussion, 2025",
      "activity_location": "London",
      "project_coordinates": {
        "city": "Harwell",
        "lat": 51.59997,
        "lon": -1.29092
      },
      "activity_coordinates": {
        "city": "London",
        "lat": 51.507351,
        "lon": -0.127758
      },
      "is_mappable": true
    },
    {
      "id": "connection-139",
      "project_name": "Physical Sciences Data Infrastructure (PSDI)",
      "project_city": "Harwell",
      "activity_name": "Exploring Data Curation and Management in Physical Sciences: PSDI Roadshow @ Cambridge, 2025",
      "activity_location": "Cambridge",
      "project_coordinates": {
        "city": "Harwell",
        "lat": 51.59997,
        "lon": -1.29092
      },
      "activity_coordinates": {
        "city": "Cambridge",
        "lat": 52.1975846499999,
        "lon": 0.139153737368743
      },
      "is_mappable": true
    },
    {
      "id": "connection-140",
      "project_name": "Physical Sciences Data Infrastructure (PSDI)",
      "project_city": "Harwell",
      "activity_name": "Exploring Data Curation and Management in Physical Sciences: PSDI Roadshow @ Southampton, 2025",
      "activity_location": "Southampton",
      "project_coordinates": {
        "city": "Harwell",
        "lat": 51.59997,
        "lon": -1.29092
      },
      "activity_coordinates": {
        "city": "Southampton",
        "lat": 50.909698,
        "lon": -1.404351
      },
      "is_mappable": true
    },
    {
      "id": "connection-141",
      "project_name": "Physical Sciences Data Infrastructure (PSDI)",
      "project_city": "Harwell",
      "activity_name": "PSDI Showcase, 2025",
      "activity_location": "Birmingham",
      "project_coordinates": {
        "city": "Harwell",
        "lat": 51.59997,
        "lon": -1.29092
      },
      "activity_coordinates": {
        "city": "Birmingham",
        "lat": 52.48142,
        "lon": -1.89983
      },
      "is_mappable": true
    },
    {
      "id": "connection-142",
      "project_name": "Physical Sciences Data Infrastructure (PSDI)",
      "project_city": "Harwell",
      "activity_name": "Transitioning from FAIR to AI Ready Data in the Physical Sciences: A PSDI & AIchemy Workshop, 2026",
      "activity_location": "Southampton",
      "project_coordinates": {
        "city": "Harwell",
        "lat": 51.59997,
        "lon": -1.29092
      },
      "activity_coordinates": {
        "city": "Southampton",
        "lat": 50.909698,
        "lon": -1.404351
      },
      "is_mappable": true
    },
    {
      "id": "connection-143",
      "project_name": "Physical Sciences Data Infrastructure (PSDI)",
      "project_city": "Harwell",
      "activity_name": "PSDI & Royce Materials Data Summit, 2026",
      "activity_location": "Manchester",
      "project_coordinates": {
        "city": "Harwell",
        "lat": 51.59997,
        "lon": -1.29092
      },
      "activity_coordinates": {
        "city": "Manchester",
        "lat": 53.483959,
        "lon": -2.244644
      },
      "is_mappable": true
    },
    {
      "id": "connection-144",
      "project_name": "SHAREing Hub",
      "project_city": "Durham",
      "activity_name": "Collaboration Workshop, 2026",
      "activity_location": "Belfast",
      "project_coordinates": {
        "city": "Durham",
        "lat": 54.7761,
        "lon": -1.5733
      },
      "activity_coordinates": {
        "city": "Belfast",
        "lat": 54.607868,
        "lon": -5.926437
      },
      "is_mappable": true
    },
    {
      "id": "connection-145",
      "project_name": "SHAREing Hub",
      "project_city": "Durham",
      "activity_name": "Computing Insight UK, 2025",
      "activity_location": "Manchester",
      "project_coordinates": {
        "city": "Durham",
        "lat": 54.7761,
        "lon": -1.5733
      },
      "activity_coordinates": {
        "city": "Manchester",
        "lat": 53.483959,
        "lon": -2.244644
      },
      "is_mappable": true
    },
    {
      "id": "connection-146",
      "project_name": "SHAREing Hub",
      "project_city": "Durham",
      "activity_name": "DRI Retreat 2026",
      "activity_location": "Manchester",
      "project_coordinates": {
        "city": "Durham",
        "lat": 54.7761,
        "lon": -1.5733
      },
      "activity_coordinates": {
        "city": "Manchester",
        "lat": 53.483959,
        "lon": -2.244644
      },
      "is_mappable": true
    },
    {
      "id": "connection-147",
      "project_name": "SHAREing Hub",
      "project_city": "Durham",
      "activity_name": "HPC-AI Advisory Council 7th Annual UK Conference, 2025",
      "activity_location": "Leicester",
      "project_coordinates": {
        "city": "Durham",
        "lat": 54.7761,
        "lon": -1.5733
      },
      "activity_coordinates": {
        "city": "Leicester",
        "lat": 52.6369,
        "lon": -1.1398
      },
      "is_mappable": true
    },
    {
      "id": "connection-148",
      "project_name": "SHAREing Hub",
      "project_city": "Durham",
      "activity_name": "Performance Monitoring of Accelerated Compute Workshop, 2026",
      "activity_location": "Swansea",
      "project_coordinates": {
        "city": "Durham",
        "lat": 54.7761,
        "lon": -1.5733
      },
      "activity_coordinates": {
        "city": "Swansea",
        "lat": 51.6214,
        "lon": -3.9436
      },
      "is_mappable": true
    },
    {
      "id": "connection-149",
      "project_name": "SHAREing Hub",
      "project_city": "Durham",
      "activity_name": "SC, 2025",
      "activity_location": "St Louis",
      "project_coordinates": {
        "city": "Durham",
        "lat": 54.7761,
        "lon": -1.5733
      },
      "activity_coordinates": null,
      "is_mappable": false
    },
    {
      "id": "connection-150",
      "project_name": "SHAREing Hub",
      "project_city": "Durham",
      "activity_name": "SIAM Conference on Parallel Processing for Scientific Computing, 2026",
      "activity_location": "Berlin",
      "project_coordinates": {
        "city": "Durham",
        "lat": 54.7761,
        "lon": -1.5733
      },
      "activity_coordinates": null,
      "is_mappable": false
    },
    {
      "id": "connection-151",
      "project_name": "ACIT-Hub",
      "project_city": "Guildford",
      "activity_name": "ACIT-Hub Training CoDesign Day-Sheffield, 2025",
      "activity_location": "Sheffield",
      "project_coordinates": {
        "city": "Guildford",
        "lat": 51.2362,
        "lon": -0.5704
      },
      "activity_coordinates": {
        "city": "Sheffield",
        "lat": 53.383331,
        "lon": -1.466667
      },
      "is_mappable": true
    },
    {
      "id": "connection-152",
      "project_name": "ACIT-Hub",
      "project_city": "Guildford",
      "activity_name": "ACIT-Hub Training CoDesign Day-Bristol, 2025",
      "activity_location": "Bristol",
      "project_coordinates": {
        "city": "Guildford",
        "lat": 51.2362,
        "lon": -0.5704
      },
      "activity_coordinates": {
        "city": "Bristol",
        "lat": 51.4538022,
        "lon": -2.5972985
      },
      "is_mappable": true
    },
    {
      "id": "connection-153",
      "project_name": "ACIT-Hub",
      "project_city": "Guildford",
      "activity_name": "ACIT-Hub Training CoDesign Day-London, 2025",
      "activity_location": "London",
      "project_coordinates": {
        "city": "Guildford",
        "lat": 51.2362,
        "lon": -0.5704
      },
      "activity_coordinates": {
        "city": "London",
        "lat": 51.507351,
        "lon": -0.127758
      },
      "is_mappable": true
    },
    {
      "id": "connection-154",
      "project_name": "ACIT-Hub",
      "project_city": "Guildford",
      "activity_name": "Performance Monitoring Hackathon, 2026",
      "activity_location": "Guildford",
      "project_coordinates": {
        "city": "Guildford",
        "lat": 51.2362,
        "lon": -0.5704
      },
      "activity_coordinates": {
        "city": "Guildford",
        "lat": 51.2362,
        "lon": -0.5704
      },
      "is_mappable": true
    },
    {
      "id": "connection-155",
      "project_name": "Software Sustainability Institute (SSI)",
      "project_city": "Edinburgh",
      "activity_name": "Collaborations Workshop, 2024",
      "activity_location": "Coventry",
      "project_coordinates": {
        "city": "Edinburgh",
        "lat": 55.9533456,
        "lon": -3.1883749
      },
      "activity_coordinates": {
        "city": "Coventry",
        "lat": 52.4068,
        "lon": -1.5197
      },
      "is_mappable": true
    },
    {
      "id": "connection-156",
      "project_name": "Software Sustainability Institute (SSI)",
      "project_city": "Edinburgh",
      "activity_name": "HPC Ready: Developing RSE and HPC Skills, 2025",
      "activity_location": "Edinburgh",
      "project_coordinates": {
        "city": "Edinburgh",
        "lat": 55.9533456,
        "lon": -3.1883749
      },
      "activity_coordinates": {
        "city": "Edinburgh",
        "lat": 55.9533456,
        "lon": -3.1883749
      },
      "is_mappable": true
    },
    {
      "id": "connection-157",
      "project_name": "Software Sustainability Institute (SSI)",
      "project_city": "Edinburgh",
      "activity_name": "Collaborations Workshop, 2025",
      "activity_location": "Stirling",
      "project_coordinates": {
        "city": "Edinburgh",
        "lat": 55.9533456,
        "lon": -3.1883749
      },
      "activity_coordinates": {
        "city": "Stirling",
        "lat": 56.1165,
        "lon": -3.9369
      },
      "is_mappable": true
    },
    {
      "id": "connection-158",
      "project_name": "Software Sustainability Institute (SSI)",
      "project_city": "Edinburgh",
      "activity_name": "Collaborations Workshop, 2026",
      "activity_location": "Belfast",
      "project_coordinates": {
        "city": "Edinburgh",
        "lat": 55.9533456,
        "lon": -3.1883749
      },
      "activity_coordinates": {
        "city": "Belfast",
        "lat": 54.607868,
        "lon": -5.926437
      },
      "is_mappable": true
    },
    {
      "id": "connection-159",
      "project_name": "Strategic technical platform for university professionals (STEP-UP)",
      "project_city": "London",
      "activity_name": "RSLondonSouthEast, 2024",
      "activity_location": "London",
      "project_coordinates": {
        "city": "London",
        "lat": 51.507351,
        "lon": -0.127758
      },
      "activity_coordinates": {
        "city": "London",
        "lat": 51.507351,
        "lon": -0.127758
      },
      "is_mappable": true
    },
    {
      "id": "connection-160",
      "project_name": "Strategic technical platform for university professionals (STEP-UP)",
      "project_city": "London",
      "activity_name": "STEP-UP Westminster dRTP Event, 2025",
      "activity_location": "London",
      "project_coordinates": {
        "city": "London",
        "lat": 51.507351,
        "lon": -0.127758
      },
      "activity_coordinates": {
        "city": "London",
        "lat": 51.507351,
        "lon": -0.127758
      },
      "is_mappable": true
    },
    {
      "id": "connection-161",
      "project_name": "Strategic technical platform for university professionals (STEP-UP)",
      "project_city": "London",
      "activity_name": "STEP-UP Imperial RSE Community Event, 2025",
      "activity_location": "London",
      "project_coordinates": {
        "city": "London",
        "lat": 51.507351,
        "lon": -0.127758
      },
      "activity_coordinates": {
        "city": "London",
        "lat": 51.507351,
        "lon": -0.127758
      },
      "is_mappable": true
    },
    {
      "id": "connection-162",
      "project_name": "Strategic technical platform for university professionals (STEP-UP)",
      "project_city": "London",
      "activity_name": "UCL Open Science Festival, 2025",
      "activity_location": "London",
      "project_coordinates": {
        "city": "London",
        "lat": 51.507351,
        "lon": -0.127758
      },
      "activity_coordinates": {
        "city": "London",
        "lat": 51.507351,
        "lon": -0.127758
      },
      "is_mappable": true
    },
    {
      "id": "connection-163",
      "project_name": "Strategic technical platform for university professionals (STEP-UP)",
      "project_city": "London",
      "activity_name": "Digital Humanities & Research Software Engineering Summer School, 2025",
      "activity_location": "London",
      "project_coordinates": {
        "city": "London",
        "lat": 51.507351,
        "lon": -0.127758
      },
      "activity_coordinates": {
        "city": "London",
        "lat": 51.507351,
        "lon": -0.127758
      },
      "is_mappable": true
    },
    {
      "id": "connection-164",
      "project_name": "Strategic technical platform for university professionals (STEP-UP)",
      "project_city": "London",
      "activity_name": "STEP-UP RSLondon Conference, 2025",
      "activity_location": "London",
      "project_coordinates": {
        "city": "London",
        "lat": 51.507351,
        "lon": -0.127758
      },
      "activity_coordinates": {
        "city": "London",
        "lat": 51.507351,
        "lon": -0.127758
      },
      "is_mappable": true
    },
    {
      "id": "connection-165",
      "project_name": "Strategic technical platform for university professionals (STEP-UP)",
      "project_city": "London",
      "activity_name": "Building central research computation facilities at London universities, 2025",
      "activity_location": "London",
      "project_coordinates": {
        "city": "London",
        "lat": 51.507351,
        "lon": -0.127758
      },
      "activity_coordinates": {
        "city": "London",
        "lat": 51.507351,
        "lon": -0.127758
      },
      "is_mappable": true
    },
    {
      "id": "connection-166",
      "project_name": "Strategic technical platform for university professionals (STEP-UP)",
      "project_city": "London",
      "activity_name": "Building a comprehensive and coordinated training landscape for dRTPs, 2025",
      "activity_location": "London",
      "project_coordinates": {
        "city": "London",
        "lat": 51.507351,
        "lon": -0.127758
      },
      "activity_coordinates": {
        "city": "London",
        "lat": 51.507351,
        "lon": -0.127758
      },
      "is_mappable": true
    },
    {
      "id": "connection-167",
      "project_name": "Strategic technical platform for university professionals (STEP-UP)",
      "project_city": "London",
      "activity_name": "Connecting research data and software communities: sharing experiences and creating opportunities, 2026",
      "activity_location": "Cambridge",
      "project_coordinates": {
        "city": "London",
        "lat": 51.507351,
        "lon": -0.127758
      },
      "activity_coordinates": {
        "city": "Cambridge",
        "lat": 52.1975846499999,
        "lon": 0.139153737368743
      },
      "is_mappable": true
    },
    {
      "id": "connection-168",
      "project_name": "Strategic technical platform for university professionals (STEP-UP)",
      "project_city": "London",
      "activity_name": "Technical workflows for AI research: skills, challenges and future developments, 2026",
      "activity_location": "London",
      "project_coordinates": {
        "city": "London",
        "lat": 51.507351,
        "lon": -0.127758
      },
      "activity_coordinates": {
        "city": "London",
        "lat": 51.507351,
        "lon": -0.127758
      },
      "is_mappable": true
    },
    {
      "id": "connection-169",
      "project_name": "Strategic technical platform for university professionals (STEP-UP)",
      "project_city": "London",
      "activity_name": "Developing career options for Data Stewards, 2026",
      "activity_location": "London",
      "project_coordinates": {
        "city": "London",
        "lat": 51.507351,
        "lon": -0.127758
      },
      "activity_coordinates": {
        "city": "London",
        "lat": 51.507351,
        "lon": -0.127758
      },
      "is_mappable": true
    },
    {
      "id": "connection-170",
      "project_name": "Strategic technical platform for university professionals (STEP-UP)",
      "project_city": "London",
      "activity_name": "STEP-UP RSLondon Conference, 2026",
      "activity_location": "London",
      "project_coordinates": {
        "city": "London",
        "lat": 51.507351,
        "lon": -0.127758
      },
      "activity_coordinates": {
        "city": "London",
        "lat": 51.507351,
        "lon": -0.127758
      },
      "is_mappable": true
    },
    {
      "id": "connection-171",
      "project_name": "Strategic technical platform for university professionals (STEP-UP)",
      "project_city": "London",
      "activity_name": "Introduction to Containers with Docker and Singularity, 2026",
      "activity_location": "London",
      "project_coordinates": {
        "city": "London",
        "lat": 51.507351,
        "lon": -0.127758
      },
      "activity_coordinates": {
        "city": "London",
        "lat": 51.507351,
        "lon": -0.127758
      },
      "is_mappable": true
    },
    {
      "id": "connection-172",
      "project_name": "Strategic technical platform for university professionals (STEP-UP)",
      "project_city": "London",
      "activity_name": "Developing a Sustainable Research Computing Environment at UK Universities, 2026",
      "activity_location": "London",
      "project_coordinates": {
        "city": "London",
        "lat": 51.507351,
        "lon": -0.127758
      },
      "activity_coordinates": {
        "city": "London",
        "lat": 51.507351,
        "lon": -0.127758
      },
      "is_mappable": true
    },
    {
      "id": "connection-173",
      "project_name": "UK robotics and autonomous systems strategic technical platform (UKRAS-STEP)",
      "project_city": "Leeds",
      "activity_name": "UK RAS STEPS Technical Showcase, 2025",
      "activity_location": "London",
      "project_coordinates": {
        "city": "Leeds",
        "lat": 53.801277,
        "lon": -1.548567
      },
      "activity_coordinates": {
        "city": "London",
        "lat": 51.507351,
        "lon": -0.127758
      },
      "is_mappable": true
    },
    {
      "id": "connection-174",
      "project_name": "UK robotics and autonomous systems strategic technical platform (UKRAS-STEP)",
      "project_city": "Leeds",
      "activity_name": "UK RAS STEPS & Cambridge Robotics Workshop, 2025",
      "activity_location": "Cambridge",
      "project_coordinates": {
        "city": "Leeds",
        "lat": 53.801277,
        "lon": -1.548567
      },
      "activity_coordinates": {
        "city": "Cambridge",
        "lat": 52.1975846499999,
        "lon": 0.139153737368743
      },
      "is_mappable": true
    },
    {
      "id": "connection-175",
      "project_name": "UK robotics and autonomous systems strategic technical platform (UKRAS-STEP)",
      "project_city": "Leeds",
      "activity_name": "UK RAS STEPS Special Interest Group Showcase, 2026",
      "activity_location": "Edinburgh",
      "project_coordinates": {
        "city": "Leeds",
        "lat": 53.801277,
        "lon": -1.548567
      },
      "activity_coordinates": {
        "city": "Edinburgh",
        "lat": 55.9533456,
        "lon": -3.1883749
      },
      "is_mappable": true
    },
    {
      "id": "connection-176",
      "project_name": "UK robotics and autonomous systems strategic technical platform (UKRAS-STEP)",
      "project_city": "Leeds",
      "activity_name": "SPECS Research Conference, 2026",
      "activity_location": "Hatfield",
      "project_coordinates": {
        "city": "Leeds",
        "lat": 53.801277,
        "lon": -1.548567
      },
      "activity_coordinates": {
        "city": "Hatfield",
        "lat": 51.7634,
        "lon": -0.2242
      },
      "is_mappable": true
    },
    {
      "id": "connection-177",
      "project_name": "UK robotics and autonomous systems strategic technical platform (UKRAS-STEP)",
      "project_city": "Leeds",
      "activity_name": "Cambridge Technical Conference-Women in Robotics Sessions, 2026",
      "activity_location": "Cambridge",
      "project_coordinates": {
        "city": "Leeds",
        "lat": 53.801277,
        "lon": -1.548567
      },
      "activity_coordinates": {
        "city": "Cambridge",
        "lat": 52.1975846499999,
        "lon": 0.139153737368743
      },
      "is_mappable": true
    }
  ]
}
